City,Latitude,Longitude,Interval,Text,Current,Offset
Berkeley,37.8715,-122.273,2006,Intern at Schlumberger EMI,FALSE,0
Milan,45.4642,9.19,2007-2008,Data Processor at Geosystem,FALSE,-15
Edinburgh,55.9533,-3.1883,2008-2009,Field Geophysicist at PGS,FALSE,2
San Diego,32.7157,-117.1611,2014-2016,Survey Manager at GroundMetrics,FALSE,-12
Strasbourg,48.5833,7.75,2013-2020,Consultant at Hyperion Services,TRUE,-2
